[
  {
    "city": "Belgrade",
    "lat": "44.8167",
    "lng": "20.4667",
    "country": "Serbia",
    "iso2": "RS",
    "admin_name": "Beograd",
    "capital": "primary",
    "population": "1378682",
    "population_proper": "1378682"
  },
  {
    "city": "Novi Sad",
    "lat": "45.2644",
    "lng": "19.8317",
    "country": "Serbia",
    "iso2": "RS",
    "admin_name": "Novi Sad",
    "capital": "admin",
    "population": "380000",
    "population_proper": "380000"
  },
  {
    "city": "Niš",
    "lat": "43.3192",
    "lng": "21.8961",
    "country": "Serbia",
    "iso2": "RS",
    "admin_name": "Niš",
    "capital": "admin",
    "population": "183164",
    "population_proper": "183164"
  },
  {
    "city": "Zemun",
    "lat": "44.8500",
    "lng": "20.4000",
    "country": "Serbia",
    "iso2": "RS",
    "admin_name": "Beograd",
    "capital": "minor",
    "population": "161596",
    "population_proper": "161596"
  },
  {
    "city": "Kragujevac",
    "lat": "44.0142",
    "lng": "20.9394",
    "country": "Serbia",
    "iso2": "RS",
    "admin_name": "Kragujevac",
    "capital": "admin",
    "population": "150623",
    "population_proper": "150623"
  },
  {
    "city": "Subotica",
    "lat": "46.0983",
    "lng": "19.6700",
    "country": "Serbia",
    "iso2": "RS",
    "admin_name": "Subotica",
    "capital": "admin",
    "population": "105681",
    "population_proper": "105681"
  },
  {
    "city": "Valjevo",
    "lat": "44.2667",
    "lng": "19.8833",
    "country": "Serbia",
    "iso2": "RS",
    "admin_name": "Valjevo",
    "capital": "admin",
    "population": "90312",
    "population_proper": "90312"
  },
  {
    "city": "Loznica",
    "lat": "44.5333",
    "lng": "19.2258",
    "country": "Serbia",
    "iso2": "RS",
    "admin_name": "Loznica",
    "capital": "admin",
    "population": "86413",
    "population_proper": "86413"
  },
  {
    "city": "Zrenjanin",
    "lat": "45.3778",
    "lng": "20.3861",
    "country": "Serbia",
    "iso2": "RS",
    "admin_name": "Zrenjanin",
    "capital": "admin",
    "population": "76511",
    "population_proper": "76511"
  },
  {
    "city": "Pančevo",
    "lat": "44.8739",
    "lng": "20.6519",
    "country": "Serbia",
    "iso2": "RS",
    "admin_name": "Pančevo",
    "capital": "admin",
    "population": "76203",
    "population_proper": "76203"
  },
  {
    "city": "Čačak",
    "lat": "43.8914",
    "lng": "20.3497",
    "country": "Serbia",
    "iso2": "RS",
    "admin_name": "Čačak",
    "capital": "admin",
    "population": "71883",
    "population_proper": "71883"
  },
  {
    "city": "Kraljevo",
    "lat": "43.7234",
    "lng": "20.6870",
    "country": "Serbia",
    "iso2": "RS",
    "admin_name": "Kraljevo",
    "capital": "admin",
    "population": "66688",
    "population_proper": "66688"
  },
  {
    "city": "Novi Pazar",
    "lat": "43.1500",
    "lng": "20.5167",
    "country": "Serbia",
    "iso2": "RS",
    "admin_name": "Novi Pazar",
    "capital": "admin",
    "population": "66527",
    "population_proper": "66527"
  },
  {
    "city": "Leskovac",
    "lat": "42.9981",
    "lng": "21.9461",
    "country": "Serbia",
    "iso2": "RS",
    "admin_name": "Leskovac",
    "capital": "admin",
    "population": "60288",
    "population_proper": "60288"
  },
  {
    "city": "Užice",
    "lat": "43.8500",
    "lng": "19.8500",
    "country": "Serbia",
    "iso2": "RS",
    "admin_name": "Užice",
    "capital": "admin",
    "population": "59747",
    "population_proper": "59747"
  },
  {
    "city": "Kruševac",
    "lat": "43.5833",
    "lng": "21.3267",
    "country": "Serbia",
    "iso2": "RS",
    "admin_name": "Kruševac",
    "capital": "admin",
    "population": "58745",
    "population_proper": "58745"
  },
  {
    "city": "Vranje",
    "lat": "42.5542",
    "lng": "21.8972",
    "country": "Serbia",
    "iso2": "RS",
    "admin_name": "Vranje",
    "capital": "admin",
    "population": "55138",
    "population_proper": "55138"
  },
  {
    "city": "Sombor",
    "lat": "45.7800",
    "lng": "19.1200",
    "country": "Serbia",
    "iso2": "RS",
    "admin_name": "Sombor",
    "capital": "admin",
    "population": "51471",
    "population_proper": "51471"
  },
  {
    "city": "Batajnica",
    "lat": "44.9022",
    "lng": "20.2814",
    "country": "Serbia",
    "iso2": "RS",
    "admin_name": "Sremski Okrug",
    "capital": "",
    "population": "48600",
    "population_proper": "48600"
  },
  {
    "city": "Kikinda",
    "lat": "45.8244",
    "lng": "20.4592",
    "country": "Serbia",
    "iso2": "RS",
    "admin_name": "Kikinda",
    "capital": "admin",
    "population": "38065",
    "population_proper": "38065"
  },
  {
    "city": "Prijepolje",
    "lat": "43.5439",
    "lng": "19.6514",
    "country": "Serbia",
    "iso2": "RS",
    "admin_name": "Prijepolje",
    "capital": "admin",
    "population": "37059",
    "population_proper": "37059"
  },
  {
    "city": "Vršac",
    "lat": "45.1206",
    "lng": "21.2986",
    "country": "Serbia",
    "iso2": "RS",
    "admin_name": "Vršac",
    "capital": "admin",
    "population": "35701",
    "population_proper": "35701"
  },
  {
    "city": "Bor",
    "lat": "44.1303",
    "lng": "22.1036",
    "country": "Serbia",
    "iso2": "RS",
    "admin_name": "Bor",
    "capital": "admin",
    "population": "34159",
    "population_proper": "34159"
  },
  {
    "city": "Bačka Palanka",
    "lat": "45.2506",
    "lng": "19.3886",
    "country": "Serbia",
    "iso2": "RS",
    "admin_name": "Bačka Palanka",
    "capital": "admin",
    "population": "29449",
    "population_proper": "29449"
  },
  {
    "city": "Priboj",
    "lat": "43.5816",
    "lng": "19.5273",
    "country": "Serbia",
    "iso2": "RS",
    "admin_name": "Priboj",
    "capital": "admin",
    "population": "27133",
    "population_proper": "27133"
  },
  {
    "city": "Bajina Bašta",
    "lat": "43.9731",
    "lng": "19.5597",
    "country": "Serbia",
    "iso2": "RS",
    "admin_name": "Bajina Bašta",
    "capital": "admin",
    "population": "26022",
    "population_proper": "26022"
  },
  {
    "city": "Vrbas",
    "lat": "45.5697",
    "lng": "19.6378",
    "country": "Serbia",
    "iso2": "RS",
    "admin_name": "Vrbas",
    "capital": "admin",
    "population": "24112",
    "population_proper": "24112"
  },
  {
    "city": "Ćuprija",
    "lat": "43.9231",
    "lng": "21.3686",
    "country": "Serbia",
    "iso2": "RS",
    "admin_name": "Ćuprija",
    "capital": "admin",
    "population": "20585",
    "population_proper": "20585"
  },
  {
    "city": "Senta",
    "lat": "45.9314",
    "lng": "20.0900",
    "country": "Serbia",
    "iso2": "RS",
    "admin_name": "Senta",
    "capital": "admin",
    "population": "20302",
    "population_proper": "20302"
  },
  {
    "city": "Trstenik",
    "lat": "43.6186",
    "lng": "20.9972",
    "country": "Serbia",
    "iso2": "RS",
    "admin_name": "Trstenik",
    "capital": "admin",
    "population": "17180",
    "population_proper": "17180"
  },
  {
    "city": "Bačka Topola",
    "lat": "45.8089",
    "lng": "19.6350",
    "country": "Serbia",
    "iso2": "RS",
    "admin_name": "Bačka Topola",
    "capital": "admin",
    "population": "16171",
    "population_proper": "16171"
  },
  {
    "city": "Sjenica",
    "lat": "43.2667",
    "lng": "20.0000",
    "country": "Serbia",
    "iso2": "RS",
    "admin_name": "Sjenica",
    "capital": "admin",
    "population": "14060",
    "population_proper": "14060"
  },
  {
    "city": "Bela Crkva",
    "lat": "44.8975",
    "lng": "21.4172",
    "country": "Serbia",
    "iso2": "RS",
    "admin_name": "Bela Crkva",
    "capital": "admin",
    "population": "10675",
    "population_proper": "10675"
  },
  {
    "city": "Ada",
    "lat": "45.8014",
    "lng": "20.1222",
    "country": "Serbia",
    "iso2": "RS",
    "admin_name": "Ada",
    "capital": "admin",
    "population": "10547",
    "population_proper": "10547"
  },
  {
    "city": "Vrnjačka Banja",
    "lat": "43.6167",
    "lng": "20.9000",
    "country": "Serbia",
    "iso2": "RS",
    "admin_name": "Vrnjačka Banja",
    "capital": "admin",
    "population": "10065",
    "population_proper": "10065"
  },
  {
    "city": "Kanjiža",
    "lat": "46.0667",
    "lng": "20.0500",
    "country": "Serbia",
    "iso2": "RS",
    "admin_name": "Kanjiža",
    "capital": "admin",
    "population": "9871",
    "population_proper": "9871"
  },
  {
    "city": "Žabalj",
    "lat": "45.3667",
    "lng": "20.0667",
    "country": "Serbia",
    "iso2": "RS",
    "admin_name": "Žabalj",
    "capital": "admin",
    "population": "9161",
    "population_proper": "9161"
  },
  {
    "city": "Odžaci",
    "lat": "45.5167",
    "lng": "19.2667",
    "country": "Serbia",
    "iso2": "RS",
    "admin_name": "Odžaci",
    "capital": "admin",
    "population": "9021",
    "population_proper": "9021"
  },
  {
    "city": "Sremski Karlovci",
    "lat": "45.2000",
    "lng": "19.9333",
    "country": "Serbia",
    "iso2": "RS",
    "admin_name": "Sremski Karlovci",
    "capital": "admin",
    "population": "8750",
    "population_proper": "8750"
  },
  {
    "city": "Beočin",
    "lat": "45.1922",
    "lng": "19.7203",
    "country": "Serbia",
    "iso2": "RS",
    "admin_name": "Beočin",
    "capital": "admin",
    "population": "8058",
    "population_proper": "8058"
  },
  {
    "city": "Sokobanja",
    "lat": "43.6394",
    "lng": "21.8694",
    "country": "Serbia",
    "iso2": "RS",
    "admin_name": "Sokobanja",
    "capital": "admin",
    "population": "7982",
    "population_proper": "7982"
  },
  {
    "city": "Lapovo",
    "lat": "44.1842",
    "lng": "21.0973",
    "country": "Serbia",
    "iso2": "RS",
    "admin_name": "Lapovo",
    "capital": "admin",
    "population": "7143",
    "population_proper": "7143"
  },
  {
    "city": "Melenci",
    "lat": "45.5083",
    "lng": "20.3169",
    "country": "Serbia",
    "iso2": "RS",
    "admin_name": "Srednje Banatski Okrug",
    "capital": "",
    "population": "6737",
    "population_proper": "6737"
  },
  {
    "city": "Bački Petrovac",
    "lat": "45.3564",
    "lng": "19.5883",
    "country": "Serbia",
    "iso2": "RS",
    "admin_name": "Bački Petrovac",
    "capital": "admin",
    "population": "6727",
    "population_proper": "6727"
  },
  {
    "city": "Bogatić",
    "lat": "44.8375",
    "lng": "19.4806",
    "country": "Serbia",
    "iso2": "RS",
    "admin_name": "Bogatić",
    "capital": "admin",
    "population": "6488",
    "population_proper": "6488"
  },
  {
    "city": "Horgoš",
    "lat": "46.1556",
    "lng": "19.9725",
    "country": "Serbia",
    "iso2": "RS",
    "admin_name": "Severno Banatski Okrug",
    "capital": "",
    "population": "6325",
    "population_proper": "6325"
  },
  {
    "city": "Bač",
    "lat": "45.3886",
    "lng": "19.2353",
    "country": "Serbia",
    "iso2": "RS",
    "admin_name": "Bač",
    "capital": "admin",
    "population": "6087",
    "population_proper": "6087"
  },
  {
    "city": "Banatski Karlovac",
    "lat": "45.0472",
    "lng": "21.0161",
    "country": "Serbia",
    "iso2": "RS",
    "admin_name": "Južno Banatski Okrug",
    "capital": "",
    "population": "5820",
    "population_proper": "5820"
  },
  {
    "city": "Debeljača",
    "lat": "45.0711",
    "lng": "20.6000",
    "country": "Serbia",
    "iso2": "RS",
    "admin_name": "Južno Banatski Okrug",
    "capital": "",
    "population": "5325",
    "population_proper": "5325"
  },
  {
    "city": "Stara Moravica",
    "lat": "45.8689",
    "lng": "19.4661",
    "country": "Serbia",
    "iso2": "RS",
    "admin_name": "Severno Bački Okrug",
    "capital": "",
    "population": "5051",
    "population_proper": "5051"
  },
  {
    "city": "Irig",
    "lat": "45.1011",
    "lng": "19.8583",
    "country": "Serbia",
    "iso2": "RS",
    "admin_name": "Irig",
    "capital": "admin",
    "population": "4848",
    "population_proper": "4848"
  },
  {
    "city": "Čoka",
    "lat": "45.9389",
    "lng": "20.1394",
    "country": "Serbia",
    "iso2": "RS",
    "admin_name": "Čoka",
    "capital": "admin",
    "population": "4707",
    "population_proper": "4707"
  },
  {
    "city": "Elemir",
    "lat": "45.4425",
    "lng": "20.3000",
    "country": "Serbia",
    "iso2": "RS",
    "admin_name": "Srednje Banatski Okrug",
    "capital": "",
    "population": "4690",
    "population_proper": "4690"
  },
  {
    "city": "Ečka",
    "lat": "45.3178",
    "lng": "20.4389",
    "country": "Serbia",
    "iso2": "RS",
    "admin_name": "Srednje Banatski Okrug",
    "capital": "",
    "population": "4513",
    "population_proper": "4513"
  },
  {
    "city": "Markovac",
    "lat": "44.2333",
    "lng": "21.1000",
    "country": "Serbia",
    "iso2": "RS",
    "admin_name": "Podunavski Okrug",
    "capital": "",
    "population": "4462",
    "population_proper": "4462"
  },
  {
    "city": "Novi Slankamen",
    "lat": "45.1253",
    "lng": "20.2394",
    "country": "Serbia",
    "iso2": "RS",
    "admin_name": "Sremski Okrug",
    "capital": "",
    "population": "4125",
    "population_proper": "4125"
  },
  {
    "city": "Vladimirovac",
    "lat": "45.0331",
    "lng": "20.8639",
    "country": "Serbia",
    "iso2": "RS",
    "admin_name": "Južno Banatski Okrug",
    "capital": "",
    "population": "4111",
    "population_proper": "4111"
  },
  {
    "city": "Perlez",
    "lat": "45.2047",
    "lng": "20.3756",
    "country": "Serbia",
    "iso2": "RS",
    "admin_name": "Srednje Banatski Okrug",
    "capital": "",
    "population": "3818",
    "population_proper": "3818"
  },
  {
    "city": "Kamenica",
    "lat": "43.3758",
    "lng": "21.9419",
    "country": "Serbia",
    "iso2": "RS",
    "admin_name": "Nišavski Okrug",
    "capital": "",
    "population": "3700",
    "population_proper": "3700"
  },
  {
    "city": "Bašaid",
    "lat": "45.6411",
    "lng": "20.4142",
    "country": "Serbia",
    "iso2": "RS",
    "admin_name": "Severno Banatski Okrug",
    "capital": "",
    "population": "3503",
    "population_proper": "3503"
  },
  {
    "city": "Aradac",
    "lat": "45.3764",
    "lng": "20.3008",
    "country": "Serbia",
    "iso2": "RS",
    "admin_name": "Srednje Banatski Okrug",
    "capital": "",
    "population": "3461",
    "population_proper": "3461"
  },
  {
    "city": "Alibunar",
    "lat": "45.0808",
    "lng": "20.9658",
    "country": "Serbia",
    "iso2": "RS",
    "admin_name": "Alibunar",
    "capital": "admin",
    "population": "3431",
    "population_proper": "3431"
  },
  {
    "city": "Vreoci",
    "lat": "44.4387",
    "lng": "20.2757",
    "country": "Serbia",
    "iso2": "RS",
    "admin_name": "Beograd",
    "capital": "",
    "population": "3210",
    "population_proper": "3210"
  },
  {
    "city": "Čenta",
    "lat": "45.1050",
    "lng": "20.3861",
    "country": "Serbia",
    "iso2": "RS",
    "admin_name": "Srednje Banatski Okrug",
    "capital": "",
    "population": "3119",
    "population_proper": "3119"
  },
  {
    "city": "Klek",
    "lat": "45.4197",
    "lng": "20.4747",
    "country": "Serbia",
    "iso2": "RS",
    "admin_name": "Srednje Banatski Okrug",
    "capital": "",
    "population": "2959",
    "population_proper": "2959"
  },
  {
    "city": "Deliblato",
    "lat": "44.8372",
    "lng": "21.0383",
    "country": "Serbia",
    "iso2": "RS",
    "admin_name": "Južno Banatski Okrug",
    "capital": "",
    "population": "2939",
    "population_proper": "2939"
  },
  {
    "city": "Padej",
    "lat": "45.8289",
    "lng": "20.1661",
    "country": "Serbia",
    "iso2": "RS",
    "admin_name": "Severno Banatski Okrug",
    "capital": "",
    "population": "2882",
    "population_proper": "2882"
  },
  {
    "city": "Lazarevo",
    "lat": "45.3864",
    "lng": "20.5367",
    "country": "Serbia",
    "iso2": "RS",
    "admin_name": "Srednje Banatski Okrug",
    "capital": "",
    "population": "2877",
    "population_proper": "2877"
  },
  {
    "city": "Novi Žednik",
    "lat": "45.9333",
    "lng": "19.6667",
    "country": "Serbia",
    "iso2": "RS",
    "admin_name": "Severno Bački Okrug",
    "capital": "",
    "population": "2848",
    "population_proper": "2848"
  },
  {
    "city": "Crna Trava",
    "lat": "42.8101",
    "lng": "22.2990",
    "country": "Serbia",
    "iso2": "RS",
    "admin_name": "Crna Trava",
    "capital": "admin",
    "population": "434",
    "population_proper": "434"
  },
  {
    "city": "Jagodina",
    "lat": "43.9750",
    "lng": "21.2564",
    "country": "Serbia",
    "iso2": "RS",
    "admin_name": "Jagodina",
    "capital": "admin",
    "population": "",
    "population_proper": ""
  },
  {
    "city": "Šabac",
    "lat": "44.7558",
    "lng": "19.6939",
    "country": "Serbia",
    "iso2": "RS",
    "admin_name": "Šabac",
    "capital": "admin",
    "population": "",
    "population_proper": ""
  },
  {
    "city": "Gornji Milanovac",
    "lat": "44.0212",
    "lng": "20.4560",
    "country": "Serbia",
    "iso2": "RS",
    "admin_name": "Gornji Milanovac",
    "capital": "admin",
    "population": "",
    "population_proper": ""
  },
  {
    "city": "Požega",
    "lat": "43.8500",
    "lng": "20.0500",
    "country": "Serbia",
    "iso2": "RS",
    "admin_name": "Požega",
    "capital": "admin",
    "population": "",
    "population_proper": ""
  },
  {
    "city": "Krupanj",
    "lat": "44.3656",
    "lng": "19.3619",
    "country": "Serbia",
    "iso2": "RS",
    "admin_name": "Krupanj",
    "capital": "admin",
    "population": "",
    "population_proper": ""
  },
  {
    "city": "Lebane",
    "lat": "42.9167",
    "lng": "21.7333",
    "country": "Serbia",
    "iso2": "RS",
    "admin_name": "Lebane",
    "capital": "admin",
    "population": "",
    "population_proper": ""
  },
  {
    "city": "Vladičin Han",
    "lat": "42.7000",
    "lng": "22.0667",
    "country": "Serbia",
    "iso2": "RS",
    "admin_name": "Vladičin Han",
    "capital": "admin",
    "population": "",
    "population_proper": ""
  },
  {
    "city": "Knjaževac",
    "lat": "43.5000",
    "lng": "22.4333",
    "country": "Serbia",
    "iso2": "RS",
    "admin_name": "Knjaževac",
    "capital": "admin",
    "population": "",
    "population_proper": ""
  },
  {
    "city": "Ljubovija",
    "lat": "44.1869",
    "lng": "19.3728",
    "country": "Serbia",
    "iso2": "RS",
    "admin_name": "Ljubovija",
    "capital": "admin",
    "population": "",
    "population_proper": ""
  },
  {
    "city": "Smederevska Palanka",
    "lat": "44.3655",
    "lng": "20.9587",
    "country": "Serbia",
    "iso2": "RS",
    "admin_name": "Smederevska Palanka",
    "capital": "admin",
    "population": "",
    "population_proper": ""
  },
  {
    "city": "Mali Zvornik",
    "lat": "44.3992",
    "lng": "19.1214",
    "country": "Serbia",
    "iso2": "RS",
    "admin_name": "Mali Zvornik",
    "capital": "admin",
    "population": "",
    "population_proper": ""
  },
  {
    "city": "Surdulica",
    "lat": "42.6950",
    "lng": "22.1672",
    "country": "Serbia",
    "iso2": "RS",
    "admin_name": "Surdulica",
    "capital": "admin",
    "population": "",
    "population_proper": ""
  },
  {
    "city": "Požarevac",
    "lat": "44.6200",
    "lng": "21.1897",
    "country": "Serbia",
    "iso2": "RS",
    "admin_name": "Požarevac",
    "capital": "admin",
    "population": "",
    "population_proper": ""
  },
  {
    "city": "Zaječar",
    "lat": "43.9042",
    "lng": "22.2847",
    "country": "Serbia",
    "iso2": "RS",
    "admin_name": "Zaječar",
    "capital": "admin",
    "population": "",
    "population_proper": ""
  },
  {
    "city": "Paraćin",
    "lat": "43.8667",
    "lng": "21.4167",
    "country": "Serbia",
    "iso2": "RS",
    "admin_name": "Paraćin",
    "capital": "admin",
    "population": "",
    "population_proper": ""
  },
  {
    "city": "Lučani",
    "lat": "43.8667",
    "lng": "20.1333",
    "country": "Serbia",
    "iso2": "RS",
    "admin_name": "Lučani",
    "capital": "admin",
    "population": "",
    "population_proper": ""
  },
  {
    "city": "Smederevo",
    "lat": "44.6633",
    "lng": "20.9289",
    "country": "Serbia",
    "iso2": "RS",
    "admin_name": "Smederevo",
    "capital": "admin",
    "population": "",
    "population_proper": ""
  },
  {
    "city": "Aleksinac",
    "lat": "43.5383",
    "lng": "21.7047",
    "country": "Serbia",
    "iso2": "RS",
    "admin_name": "Aleksinac",
    "capital": "admin",
    "population": "",
    "population_proper": ""
  },
  {
    "city": "Despotovac",
    "lat": "44.0833",
    "lng": "21.4333",
    "country": "Serbia",
    "iso2": "RS",
    "admin_name": "Despotovac",
    "capital": "admin",
    "population": "",
    "population_proper": ""
  },
  {
    "city": "Kladovo",
    "lat": "44.6039",
    "lng": "22.6072",
    "country": "Serbia",
    "iso2": "RS",
    "admin_name": "Kladovo",
    "capital": "admin",
    "population": "",
    "population_proper": ""
  },
  {
    "city": "Pirot",
    "lat": "43.1519",
    "lng": "22.5850",
    "country": "Serbia",
    "iso2": "RS",
    "admin_name": "Pirot",
    "capital": "admin",
    "population": "",
    "population_proper": ""
  },
  {
    "city": "Vlasotince",
    "lat": "42.9667",
    "lng": "22.1333",
    "country": "Serbia",
    "iso2": "RS",
    "admin_name": "Vlasotince",
    "capital": "admin",
    "population": "",
    "population_proper": ""
  },
  {
    "city": "Prokuplje",
    "lat": "43.2339",
    "lng": "21.5861",
    "country": "Serbia",
    "iso2": "RS",
    "admin_name": "Prokuplje",
    "capital": "admin",
    "population": "",
    "population_proper": ""
  },
  {
    "city": "Batočina",
    "lat": "44.1500",
    "lng": "21.0833",
    "country": "Serbia",
    "iso2": "RS",
    "admin_name": "Batočina",
    "capital": "admin",
    "population": "",
    "population_proper": ""
  },
  {
    "city": "Dimitrovgrad",
    "lat": "43.0167",
    "lng": "22.7833",
    "country": "Serbia",
    "iso2": "RS",
    "admin_name": "Dimitrovgrad",
    "capital": "admin",
    "population": "",
    "population_proper": ""
  },
  {
    "city": "Doljevac",
    "lat": "43.1968",
    "lng": "21.8334",
    "country": "Serbia",
    "iso2": "RS",
    "admin_name": "Doljevac",
    "capital": "admin",
    "population": "",
    "population_proper": ""
  },
  {
    "city": "Velika Plana",
    "lat": "44.3333",
    "lng": "21.0833",
    "country": "Serbia",
    "iso2": "RS",
    "admin_name": "Velika Plana",
    "capital": "admin",
    "population": "",
    "population_proper": ""
  },
  {
    "city": "Svilajnac",
    "lat": "44.2167",
    "lng": "21.2000",
    "country": "Serbia",
    "iso2": "RS",
    "admin_name": "Svilajnac",
    "capital": "admin",
    "population": "",
    "population_proper": ""
  },
  {
    "city": "Svrljig",
    "lat": "43.4167",
    "lng": "22.1167",
    "country": "Serbia",
    "iso2": "RS",
    "admin_name": "Svrljig",
    "capital": "admin",
    "population": "",
    "population_proper": ""
  },
  {
    "city": "Šid",
    "lat": "45.1283",
    "lng": "19.2264",
    "country": "Serbia",
    "iso2": "RS",
    "admin_name": "Šid",
    "capital": "admin",
    "population": "",
    "population_proper": ""
  },
  {
    "city": "Negotin",
    "lat": "44.2167",
    "lng": "22.5167",
    "country": "Serbia",
    "iso2": "RS",
    "admin_name": "Negotin",
    "capital": "admin",
    "population": "",
    "population_proper": ""
  },
  {
    "city": "Bojnik",
    "lat": "43.0142",
    "lng": "21.7180",
    "country": "Serbia",
    "iso2": "RS",
    "admin_name": "Bojnik",
    "capital": "admin",
    "population": "",
    "population_proper": ""
  },
  {
    "city": "Topola",
    "lat": "44.2525",
    "lng": "20.6761",
    "country": "Serbia",
    "iso2": "RS",
    "admin_name": "Topola",
    "capital": "admin",
    "population": "",
    "population_proper": ""
  },
  {
    "city": "Blace",
    "lat": "43.2906",
    "lng": "21.2847",
    "country": "Serbia",
    "iso2": "RS",
    "admin_name": "Blace",
    "capital": "admin",
    "population": "",
    "population_proper": ""
  },
  {
    "city": "Apatin",
    "lat": "45.6667",
    "lng": "18.9833",
    "country": "Serbia",
    "iso2": "RS",
    "admin_name": "Apatin",
    "capital": "admin",
    "population": "",
    "population_proper": ""
  },
  {
    "city": "Arilje",
    "lat": "43.7519",
    "lng": "20.0906",
    "country": "Serbia",
    "iso2": "RS",
    "admin_name": "Arilje",
    "capital": "admin",
    "population": "",
    "population_proper": ""
  },
  {
    "city": "Kovin",
    "lat": "44.7475",
    "lng": "20.9761",
    "country": "Serbia",
    "iso2": "RS",
    "admin_name": "Kovin",
    "capital": "admin",
    "population": "",
    "population_proper": ""
  },
  {
    "city": "Boljevac",
    "lat": "43.8247",
    "lng": "21.9519",
    "country": "Serbia",
    "iso2": "RS",
    "admin_name": "Boljevac",
    "capital": "admin",
    "population": "",
    "population_proper": ""
  },
  {
    "city": "Kosjerić",
    "lat": "44.0000",
    "lng": "19.9167",
    "country": "Serbia",
    "iso2": "RS",
    "admin_name": "Kosjerić",
    "capital": "admin",
    "population": "",
    "population_proper": ""
  },
  {
    "city": "Ćićevac",
    "lat": "43.7167",
    "lng": "21.4500",
    "country": "Serbia",
    "iso2": "RS",
    "admin_name": "Ćićevac",
    "capital": "admin",
    "population": "",
    "population_proper": ""
  },
  {
    "city": "Plandište",
    "lat": "45.2269",
    "lng": "21.1217",
    "country": "Serbia",
    "iso2": "RS",
    "admin_name": "Plandište",
    "capital": "admin",
    "population": "",
    "population_proper": ""
  },
  {
    "city": "Varvarin",
    "lat": "43.7167",
    "lng": "21.3667",
    "country": "Serbia",
    "iso2": "RS",
    "admin_name": "Varvarin",
    "capital": "admin",
    "population": "",
    "population_proper": ""
  },
  {
    "city": "Ražanj",
    "lat": "43.6667",
    "lng": "21.5500",
    "country": "Serbia",
    "iso2": "RS",
    "admin_name": "Ražanj",
    "capital": "admin",
    "population": "",
    "population_proper": ""
  },
  {
    "city": "Mionica",
    "lat": "44.2500",
    "lng": "20.0833",
    "country": "Serbia",
    "iso2": "RS",
    "admin_name": "Mionica",
    "capital": "admin",
    "population": "",
    "population_proper": ""
  },
  {
    "city": "Aranđelovac",
    "lat": "44.3042",
    "lng": "20.5561",
    "country": "Serbia",
    "iso2": "RS",
    "admin_name": "Aranđelovac",
    "capital": "admin",
    "population": "",
    "population_proper": ""
  },
  {
    "city": "Kula",
    "lat": "45.6109",
    "lng": "19.5274",
    "country": "Serbia",
    "iso2": "RS",
    "admin_name": "Kula",
    "capital": "admin",
    "population": "",
    "population_proper": ""
  },
  {
    "city": "Novi Bečej",
    "lat": "45.6000",
    "lng": "20.1167",
    "country": "Serbia",
    "iso2": "RS",
    "admin_name": "Novi Bečej",
    "capital": "admin",
    "population": "",
    "population_proper": ""
  },
  {
    "city": "Bečej",
    "lat": "45.6167",
    "lng": "20.0333",
    "country": "Serbia",
    "iso2": "RS",
    "admin_name": "Bečej",
    "capital": "admin",
    "population": "",
    "population_proper": ""
  },
  {
    "city": "Žitorađa",
    "lat": "43.1833",
    "lng": "21.7167",
    "country": "Serbia",
    "iso2": "RS",
    "admin_name": "Žitorađa",
    "capital": "admin",
    "population": "",
    "population_proper": ""
  },
  {
    "city": "Titel",
    "lat": "45.2000",
    "lng": "20.3000",
    "country": "Serbia",
    "iso2": "RS",
    "admin_name": "Titel",
    "capital": "admin",
    "population": "",
    "population_proper": ""
  },
  {
    "city": "Merošina",
    "lat": "43.2833",
    "lng": "21.7167",
    "country": "Serbia",
    "iso2": "RS",
    "admin_name": "Merošina",
    "capital": "admin",
    "population": "",
    "population_proper": ""
  },
  {
    "city": "Stara Pazova",
    "lat": "44.9833",
    "lng": "20.1667",
    "country": "Serbia",
    "iso2": "RS",
    "admin_name": "Stara Pazova",
    "capital": "admin",
    "population": "",
    "population_proper": ""
  },
  {
    "city": "Bosilegrad",
    "lat": "42.5005",
    "lng": "22.4728",
    "country": "Serbia",
    "iso2": "RS",
    "admin_name": "Bosilegrad",
    "capital": "admin",
    "population": "",
    "population_proper": ""
  },
  {
    "city": "Knić",
    "lat": "43.9167",
    "lng": "20.7167",
    "country": "Serbia",
    "iso2": "RS",
    "admin_name": "Knić",
    "capital": "admin",
    "population": "",
    "population_proper": ""
  },
  {
    "city": "Sečanj",
    "lat": "45.3667",
    "lng": "20.7725",
    "country": "Serbia",
    "iso2": "RS",
    "admin_name": "Sečanj",
    "capital": "admin",
    "population": "",
    "population_proper": ""
  },
  {
    "city": "Kovačica",
    "lat": "45.1117",
    "lng": "20.6214",
    "country": "Serbia",
    "iso2": "RS",
    "admin_name": "Kovačica",
    "capital": "admin",
    "population": "",
    "population_proper": ""
  },
  {
    "city": "Medveđa",
    "lat": "42.8333",
    "lng": "21.5833",
    "country": "Serbia",
    "iso2": "RS",
    "admin_name": "Medveđa",
    "capital": "admin",
    "population": "",
    "population_proper": ""
  },
  {
    "city": "Žitište",
    "lat": "45.4850",
    "lng": "20.5497",
    "country": "Serbia",
    "iso2": "RS",
    "admin_name": "Žitište",
    "capital": "admin",
    "population": "",
    "population_proper": ""
  },
  {
    "city": "Čajetina",
    "lat": "43.7500",
    "lng": "19.7167",
    "country": "Serbia",
    "iso2": "RS",
    "admin_name": "Čajetina",
    "capital": "admin",
    "population": "",
    "population_proper": ""
  },
  {
    "city": "Sremska Mitrovica",
    "lat": "44.9833",
    "lng": "19.6167",
    "country": "Serbia",
    "iso2": "RS",
    "admin_name": "Sremska Mitrovica",
    "capital": "admin",
    "population": "",
    "population_proper": ""
  },
  {
    "city": "Ivanjica",
    "lat": "43.5811",
    "lng": "20.2297",
    "country": "Serbia",
    "iso2": "RS",
    "admin_name": "Ivanjica",
    "capital": "admin",
    "population": "",
    "population_proper": ""
  },
  {
    "city": "Inđija",
    "lat": "45.0492",
    "lng": "20.0792",
    "country": "Serbia",
    "iso2": "RS",
    "admin_name": "Inđija",
    "capital": "admin",
    "population": "",
    "population_proper": ""
  },
  {
    "city": "Žabari",
    "lat": "44.3562",
    "lng": "21.2143",
    "country": "Serbia",
    "iso2": "RS",
    "admin_name": "Žabari",
    "capital": "admin",
    "population": "",
    "population_proper": ""
  },
  {
    "city": "Petrovac na Mlavi",
    "lat": "44.3783",
    "lng": "21.4194",
    "country": "Serbia",
    "iso2": "RS",
    "admin_name": "Petrovac na Mlavi",
    "capital": "admin",
    "population": "",
    "population_proper": ""
  },
  {
    "city": "Mali Iđoš",
    "lat": "45.7069",
    "lng": "19.6644",
    "country": "Serbia",
    "iso2": "RS",
    "admin_name": "Mali Iđoš",
    "capital": "admin",
    "population": "",
    "population_proper": ""
  },
  {
    "city": "Ub",
    "lat": "44.4500",
    "lng": "20.0667",
    "country": "Serbia",
    "iso2": "RS",
    "admin_name": "Ub",
    "capital": "admin",
    "population": "",
    "population_proper": ""
  },
  {
    "city": "Rača",
    "lat": "44.2333",
    "lng": "20.9833",
    "country": "Serbia",
    "iso2": "RS",
    "admin_name": "Rača",
    "capital": "admin",
    "population": "",
    "population_proper": ""
  },
  {
    "city": "Srbobran",
    "lat": "45.5522",
    "lng": "19.8017",
    "country": "Serbia",
    "iso2": "RS",
    "admin_name": "Srbobran",
    "capital": "admin",
    "population": "",
    "population_proper": ""
  },
  {
    "city": "Ljig",
    "lat": "44.2266",
    "lng": "20.2394",
    "country": "Serbia",
    "iso2": "RS",
    "admin_name": "Ljig",
    "capital": "admin",
    "population": "",
    "population_proper": ""
  },
  {
    "city": "Rekovac",
    "lat": "43.8667",
    "lng": "21.1333",
    "country": "Serbia",
    "iso2": "RS",
    "admin_name": "Rekovac",
    "capital": "admin",
    "population": "",
    "population_proper": ""
  },
  {
    "city": "Novi Kneževac",
    "lat": "46.0500",
    "lng": "20.1000",
    "country": "Serbia",
    "iso2": "RS",
    "admin_name": "Novi Kneževac",
    "capital": "admin",
    "population": "",
    "population_proper": ""
  },
  {
    "city": "Lajkovac",
    "lat": "44.3667",
    "lng": "20.1667",
    "country": "Serbia",
    "iso2": "RS",
    "admin_name": "Lajkovac",
    "capital": "admin",
    "population": "",
    "population_proper": ""
  },
  {
    "city": "Aleksandrovac",
    "lat": "43.4553",
    "lng": "21.0514",
    "country": "Serbia",
    "iso2": "RS",
    "admin_name": "Aleksandrovac",
    "capital": "admin",
    "population": "",
    "population_proper": ""
  },
  {
    "city": "Malo Crniće",
    "lat": "44.5667",
    "lng": "21.2833",
    "country": "Serbia",
    "iso2": "RS",
    "admin_name": "Malo Crniće",
    "capital": "admin",
    "population": "",
    "population_proper": ""
  },
  {
    "city": "Kuršumlija",
    "lat": "43.1408",
    "lng": "21.2678",
    "country": "Serbia",
    "iso2": "RS",
    "admin_name": "Kuršumlija",
    "capital": "admin",
    "population": "",
    "population_proper": ""
  },
  {
    "city": "Raška",
    "lat": "43.2859",
    "lng": "20.6135",
    "country": "Serbia",
    "iso2": "RS",
    "admin_name": "Raška",
    "capital": "admin",
    "population": "",
    "population_proper": ""
  },
  {
    "city": "Golubac",
    "lat": "44.6500",
    "lng": "21.6333",
    "country": "Serbia",
    "iso2": "RS",
    "admin_name": "Golubac",
    "capital": "admin",
    "population": "",
    "population_proper": ""
  },
  {
    "city": "Pećinci",
    "lat": "44.9089",
    "lng": "19.9664",
    "country": "Serbia",
    "iso2": "RS",
    "admin_name": "Pećinci",
    "capital": "admin",
    "population": "",
    "population_proper": ""
  },
  {
    "city": "Nova Crnja",
    "lat": "45.6667",
    "lng": "20.6000",
    "country": "Serbia",
    "iso2": "RS",
    "admin_name": "Nova Crnja",
    "capital": "admin",
    "population": "",
    "population_proper": ""
  },
  {
    "city": "Majdanpek",
    "lat": "44.4167",
    "lng": "21.9333",
    "country": "Serbia",
    "iso2": "RS",
    "admin_name": "Majdanpek",
    "capital": "admin",
    "population": "",
    "population_proper": ""
  },
  {
    "city": "Ruma",
    "lat": "45.0031",
    "lng": "19.8289",
    "country": "Serbia",
    "iso2": "RS",
    "admin_name": "Ruma",
    "capital": "admin",
    "population": "",
    "population_proper": ""
  },
  {
    "city": "Vladimirci",
    "lat": "44.6167",
    "lng": "19.7833",
    "country": "Serbia",
    "iso2": "RS",
    "admin_name": "Vladimirci",
    "capital": "admin",
    "population": "",
    "population_proper": ""
  },
  {
    "city": "Tutin",
    "lat": "42.9875",
    "lng": "20.3256",
    "country": "Serbia",
    "iso2": "RS",
    "admin_name": "Tutin",
    "capital": "admin",
    "population": "",
    "population_proper": ""
  },
  {
    "city": "Babušnica",
    "lat": "43.0680",
    "lng": "22.4115",
    "country": "Serbia",
    "iso2": "RS",
    "admin_name": "Babušnica",
    "capital": "admin",
    "population": "",
    "population_proper": ""
  },
  {
    "city": "Brus",
    "lat": "43.3836",
    "lng": "21.0336",
    "country": "Serbia",
    "iso2": "RS",
    "admin_name": "Brus",
    "capital": "admin",
    "population": "",
    "population_proper": ""
  },
  {
    "city": "Osečina",
    "lat": "44.3667",
    "lng": "19.6000",
    "country": "Serbia",
    "iso2": "RS",
    "admin_name": "Osečina",
    "capital": "admin",
    "population": "",
    "population_proper": ""
  },
  {
    "city": "Veliko Gradište",
    "lat": "44.7500",
    "lng": "21.5167",
    "country": "Serbia",
    "iso2": "RS",
    "admin_name": "Veliko Gradište",
    "capital": "admin",
    "population": "",
    "population_proper": ""
  },
  {
    "city": "Kučevo",
    "lat": "44.4833",
    "lng": "21.6667",
    "country": "Serbia",
    "iso2": "RS",
    "admin_name": "Kučevo",
    "capital": "admin",
    "population": "",
    "population_proper": ""
  },
  {
    "city": "Koceljeva",
    "lat": "44.4708",
    "lng": "19.8070",
    "country": "Serbia",
    "iso2": "RS",
    "admin_name": "Koceljeva",
    "capital": "admin",
    "population": "",
    "population_proper": ""
  },
  {
    "city": "Temerin",
    "lat": "45.4053",
    "lng": "19.8869",
    "country": "Serbia",
    "iso2": "RS",
    "admin_name": "Temerin",
    "capital": "admin",
    "population": "",
    "population_proper": ""
  },
  {
    "city": "Gadžin Han",
    "lat": "43.2203",
    "lng": "22.0258",
    "country": "Serbia",
    "iso2": "RS",
    "admin_name": "Gadžin Han",
    "capital": "admin",
    "population": "",
    "population_proper": ""
  },
  {
    "city": "Opovo",
    "lat": "45.0522",
    "lng": "20.4303",
    "country": "Serbia",
    "iso2": "RS",
    "admin_name": "Opovo",
    "capital": "admin",
    "population": "",
    "population_proper": ""
  },
  {
    "city": "Žagubica",
    "lat": "44.1979",
    "lng": "21.7902",
    "country": "Serbia",
    "iso2": "RS",
    "admin_name": "Žagubica",
    "capital": "admin",
    "population": "",
    "population_proper": ""
  },
  {
    "city": "Trgovište",
    "lat": "42.3514",
    "lng": "22.0921",
    "country": "Serbia",
    "iso2": "RS",
    "admin_name": "Trgovište",
    "capital": "admin",
    "population": "",
    "population_proper": ""
  },
  {
    "city": "Nova Varoš",
    "lat": "43.4667",
    "lng": "19.8203",
    "country": "Serbia",
    "iso2": "RS",
    "admin_name": "Nova Varoš",
    "capital": "admin",
    "population": "",
    "population_proper": ""
  },
  {
    "city": "Bela Palanka",
    "lat": "43.2178",
    "lng": "22.3067",
    "country": "Serbia",
    "iso2": "RS",
    "admin_name": "Bela Palanka",
    "capital": "admin",
    "population": "",
    "population_proper": ""
  },
  {
    "city": "Preševo",
    "lat": "42.3067",
    "lng": "21.6500",
    "country": "Serbia",
    "iso2": "RS",
    "admin_name": "Preševo",
    "capital": "admin",
    "population": "",
    "population_proper": ""
  },
  {
    "city": "Bujanovac",
    "lat": "42.4667",
    "lng": "21.7667",
    "country": "Serbia",
    "iso2": "RS",
    "admin_name": "Bujanovac",
    "capital": "admin",
    "population": "",
    "population_proper": ""
  },
  {
    "city": "Mladenovac",
    "lat": "44.4418",
    "lng": "20.6970",
    "country": "Serbia",
    "iso2": "RS",
    "admin_name": "Beograd",
    "capital": "minor",
    "population": "",
    "population_proper": ""
  },
  {
    "city": "Petrovaradin",
    "lat": "45.2500",
    "lng": "19.8667",
    "country": "Serbia",
    "iso2": "RS",
    "admin_name": "Novi Sad",
    "capital": "minor",
    "population": "",
    "population_proper": ""
  },
  {
    "city": "Obrenovac",
    "lat": "44.6539",
    "lng": "20.2000",
    "country": "Serbia",
    "iso2": "RS",
    "admin_name": "Beograd",
    "capital": "minor",
    "population": "",
    "population_proper": ""
  },
  {
    "city": "Grocka",
    "lat": "44.6720",
    "lng": "20.7153",
    "country": "Serbia",
    "iso2": "RS",
    "admin_name": "Beograd",
    "capital": "minor",
    "population": "",
    "population_proper": ""
  },
  {
    "city": "Surčin",
    "lat": "44.7944",
    "lng": "20.2781",
    "country": "Serbia",
    "iso2": "RS",
    "admin_name": "Beograd",
    "capital": "minor",
    "population": "",
    "population_proper": ""
  },
  {
    "city": "Barajevo",
    "lat": "44.5790",
    "lng": "20.4179",
    "country": "Serbia",
    "iso2": "RS",
    "admin_name": "Beograd",
    "capital": "minor",
    "population": "",
    "population_proper": ""
  },
  {
    "city": "Niška Banja",
    "lat": "43.2943",
    "lng": "22.0099",
    "country": "Serbia",
    "iso2": "RS",
    "admin_name": "Niš",
    "capital": "minor",
    "population": "",
    "population_proper": ""
  },
  {
    "city": "Lazarevac",
    "lat": "44.3667",
    "lng": "20.2500",
    "country": "Serbia",
    "iso2": "RS",
    "admin_name": "Beograd",
    "capital": "minor",
    "population": "",
    "population_proper": ""
  },
  {
    "city": "Sopot",
    "lat": "44.5193",
    "lng": "20.5758",
    "country": "Serbia",
    "iso2": "RS",
    "admin_name": "Beograd",
    "capital": "minor",
    "population": "",
    "population_proper": ""
  },
  {
    "city": "Kostolac",
    "lat": "44.7167",
    "lng": "21.1667",
    "country": "Serbia",
    "iso2": "RS",
    "admin_name": "Požarevac",
    "capital": "minor",
    "population": "",
    "population_proper": ""
  }
]
